City,Country,Latitude,Longitude,Cloudiness,Temperature,Max Temp,Min Temp,Humidity,Wind Speed
Bluff,NZ,-46.6,168.3333,100,52.81,52.81,52.81,58,2.35
Ushuaia,AR,-54.8,-68.3,20,42.46,42.46,42.46,49,17.27
Bredasdorp,ZA,-34.5322,20.0403,12,57.02,57.02,57.02,67,18.19
Torbay,CA,47.6666,-52.7314,75,67.19,68.58,65.16,92,23.02
Tuktoyaktuk,CA,69.4541,-133.0374,100,55.4,55.4,55.4,94,5.75
Jamestown,US,42.097,-79.2353,0,64.87,67.64,63.05,84,1.01
La Santisima Trinidad,BO,-14.8333,-64.9,48,75.25,75.25,75.25,48,2.15
Dalvik,IS,65.9702,-18.5286,100,46.33,46.33,46.33,99,6.87
Sirte,LY,31.2089,16.5887,0,78.55,78.55,78.55,63,4.05
Atuona,PF,-9.8,-139.0333,55,77.04,77.04,77.04,72,13.65
Rikitea,PF,-23.1203,-134.9692,39,69.33,69.33,69.33,61,15.08
New Norfolk,AU,-42.7826,147.0587,75,56.19,61.72,54.9,73,1.99
Saint Paul Harbor,US,57.79,-152.4072,100,58.51,58.51,58.51,88,4.61
Kruisfontein,ZA,-34.0033,24.7314,25,73.29,73.29,73.29,23,17.0
Thompson,CA,55.7435,-97.8558,100,55.56,55.56,55.56,62,3.44
Hermanus,ZA,-34.4187,19.2345,87,62.8,62.8,62.8,77,36.1
Bambous Virieux,MU,-20.3428,57.7575,20,68.25,68.25,66.22,73,10.36
Santa Rosa,PH,14.3122,121.1114,100,89.47,91.11,89.02,68,2.84
Tuatapere,NZ,-46.1333,167.6833,100,51.64,51.64,51.64,52,1.83
Hobyo,SO,5.3505,48.5268,67,76.14,76.14,76.14,77,16.75
Hūn,LY,29.1268,15.9477,0,77.52,77.52,77.52,61,6.24
Bontoc,PH,17.0899,120.978,56,86.92,86.92,86.92,52,1.03
Kabo,CF,7.6994,18.629,100,68.07,68.07,68.07,98,2.89
George Town,MY,5.4112,100.3354,40,85.77,86.9,83.95,77,2.3
Albany,US,42.6001,-73.9662,9,66.92,71.02,63.25,85,4.54
Busselton,AU,-33.65,115.3333,28,59.02,59.02,59.02,56,4.29
Dörtyol,TR,36.8616,36.2289,14,73.2,73.2,73.2,85,1.92
Archidona,ES,37.0965,-4.3887,0,66.34,70.66,63.16,66,3.31
Port Lincoln,AU,-34.7333,135.8667,100,57.7,57.7,57.7,73,6.44
Ponta do Sol,PT,32.6667,-17.1,18,70.43,73.0,68.13,76,5.1
Mataura,NZ,-46.1927,168.8643,92,52.48,52.48,52.48,54,1.72
Banda Aceh,ID,5.5577,95.3222,100,78.87,78.87,78.87,81,13.33
Barrow,US,71.2906,-156.7887,100,39.22,39.22,39.22,100,6.91
Cape Town,ZA,-33.9258,18.4232,75,57.65,59.38,55.35,86,33.38
Qaanaaq,GL,77.484,-69.3632,85,35.22,35.22,35.22,79,6.76
Avarua,CK,-21.2078,-159.775,40,75.25,75.25,75.25,69,8.05
Atherton,GB,53.5237,-2.4935,100,60.06,62.22,58.05,93,2.37
Hobart,AU,-42.8794,147.3294,20,61.18,62.06,55.26,64,12.66
Khatanga,RU,71.9667,102.5,100,47.53,47.53,47.53,79,12.17
Örnsköldsvik,SE,63.2909,18.7153,100,54.55,54.55,54.55,100,1.14
Sawtell,AU,-30.3833,153.1,0,64.42,66.18,64.42,39,10.36
Balikpapan,ID,-1.2675,116.8289,40,81.59,81.59,81.59,89,9.22
Faanui,PF,-16.4833,-151.75,27,76.77,76.77,76.77,80,12.5
Palmer,US,42.1584,-72.3287,40,68.05,72.77,64.51,84,3.44
Port Elizabeth,ZA,-33.918,25.5701,0,57.49,57.49,57.49,94,3.44
Leiyang,CN,26.4024,112.8591,66,96.06,96.06,96.06,40,10.6
Yar-Sale,RU,66.8333,70.8333,62,51.1,51.1,51.1,63,24.23
Vilhena,BR,-12.7406,-60.1458,0,71.29,71.29,71.29,38,2.64
Carnarvon,AU,-24.8667,113.6333,10,73.38,73.38,73.38,25,2.37
Killybegs,IE,54.6333,-8.45,95,55.85,55.85,55.85,84,13.09
Port Blair,IN,11.6667,92.75,75,84.24,84.24,84.24,79,4.61
Punta Arenas,CL,-53.15,-70.9167,75,37.51,37.51,37.11,87,35.68
Saint-Philippe,RE,-21.3585,55.7679,33,65.53,65.79,63.1,77,11.86
Kholodnyy,RU,62.7167,147.95,100,46.47,46.47,46.47,83,10.76
Vaini,TO,-21.2,-175.2,40,77.16,77.16,77.16,88,11.5
Catabola,AO,-12.15,17.2833,23,57.51,57.51,57.51,40,3.24
Pringsewu,ID,-5.3582,104.9744,56,82.49,82.49,82.49,73,6.38
Mutoko,ZW,-17.397,32.2268,28,47.91,47.91,47.91,88,3.62
Pevek,RU,69.7008,170.3133,100,45.32,45.32,45.32,81,7.38
Mauá,BR,-23.6678,-46.4614,100,61.38,63.36,61.09,90,2.37
Oussouye,SN,12.485,-16.5469,98,72.99,72.99,72.99,92,2.21
Lompoc,US,34.6391,-120.4579,100,60.31,69.78,55.63,92,6.91
Arona,ES,28.0996,-16.681,20,69.22,73.9,63.72,54,12.66
Beitbridge,ZW,-22.2167,30.0,0,58.24,58.24,58.24,56,4.61
Lüderitz,NA,-26.6481,15.1594,97,58.71,58.71,58.71,80,8.05
Hilo,US,19.7297,-155.09,20,79.27,83.28,77.61,76,9.22
Kapit,MY,2.0167,112.9333,100,74.93,74.93,74.93,99,0.38
Villacarrillo,ES,38.1156,-3.0848,0,67.59,67.59,67.59,70,1.23
Anchorage,US,61.2181,-149.9003,100,58.57,60.85,55.44,91,9.22
Safaga,EG,26.7292,33.9365,0,89.38,89.38,89.38,37,5.66
Santa Fe,AR,-31.6333,-60.7,31,67.68,69.01,64.02,75,8.01
Raja,SS,8.4596,25.678,100,68.56,68.56,68.56,95,2.82
Oshikango,NA,-17.4,15.8833,5,57.24,57.24,57.24,32,5.3
Ürümqi,CN,43.801,87.6005,0,70.75,70.75,70.75,27,2.24
Port Alfred,ZA,-33.5906,26.891,0,75.34,75.34,75.34,30,21.0
Prince Rupert,CA,54.3161,-130.3201,0,60.69,64.09,60.49,88,17.27
Cadiz,ES,36.5,-5.75,93,68.13,69.22,68.13,87,2.1
Puerto Ayora,EC,-0.7393,-90.3518,79,66.54,66.54,66.54,91,3.0
Lebu,CL,-37.6167,-73.65,0,46.47,46.47,46.47,81,18.61
Castro,BR,-24.7911,-50.0119,1,52.57,52.57,52.57,88,2.46
Ancud,CL,-41.8697,-73.8203,100,46.22,46.22,46.22,82,6.42
Mehamn,NO,71.0357,27.8492,0,49.95,51.71,49.95,93,2.3
Inírida,CO,3.8653,-67.9239,24,70.65,70.65,70.65,94,2.01
Uusikaupunki,FI,60.8004,21.4084,0,54.93,54.93,54.93,89,7.34
Bandarbeyla,SO,9.4942,50.8122,6,79.25,79.25,79.25,65,24.29
Nome,US,64.5011,-165.4064,100,50.07,51.17,50.07,93,9.22
Atar,MR,20.5169,-13.0499,8,86.76,86.76,86.76,53,8.84
Nānākuli,US,21.3906,-158.1547,75,82.63,84.15,80.04,67,10.36
High Level,CA,58.5169,-117.136,40,78.91,78.91,78.91,53,2.3
Poum,NC,-20.2333,164.0167,93,74.82,74.82,74.82,73,12.19
Majene,ID,-3.5403,118.9707,96,84.52,84.52,84.52,68,7.02
Ialibu,PG,-6.2821,143.9935,100,66.74,66.74,66.74,69,4.9
Norman Wells,CA,65.282,-126.8329,100,68.04,68.04,68.04,73,3.44
Vaitape,PF,-16.5167,-151.75,28,76.62,76.62,76.62,79,11.9
Forsytheganj,BY,52.6333,29.7333,9,62.29,62.29,62.29,54,6.06
Umm Kaddadah,SD,13.6017,26.6876,100,76.17,76.17,76.17,73,9.64
Saint-Augustin,CA,51.226,-58.6502,13,61.32,61.32,61.32,95,5.03
Tiksi,RU,71.6872,128.8694,16,44.92,44.92,44.92,75,8.66
Vardø,NO,70.3705,31.1107,100,51.78,51.78,51.78,82,17.27
Bell Ville,AR,-32.6259,-62.6887,83,62.67,62.67,62.67,65,6.31
Hithadhoo,MV,-0.6,73.0833,96,81.25,81.25,81.25,73,7.34
Kapaa,US,22.0752,-159.319,100,79.97,84.18,77.18,75,8.05
Turukhansk,RU,65.8167,87.9833,76,60.31,60.31,60.31,70,16.67
De-Kastri,RU,51.4667,140.7833,56,71.02,71.02,71.02,52,2.77
Caconda,AO,-13.7333,15.0667,48,56.12,56.12,56.12,38,3.02
Genhe,CN,50.7833,121.5167,9,61.05,61.05,61.05,32,11.48
Daşoguz,TM,41.8363,59.9666,0,64.35,64.35,64.35,42,9.22
Bengkulu,ID,-3.8004,102.2655,91,81.88,81.88,81.88,69,2.35
Cherskiy,RU,68.75,161.3,95,67.87,67.87,67.87,43,12.5
Iberia,US,29.9502,-91.7507,0,76.98,78.87,75.97,88,4.61
Sioux Lookout,CA,50.1001,-91.917,75,59.07,59.07,59.07,82,2.3
Arraial do Cabo,BR,-22.9661,-42.0278,84,68.32,68.32,68.32,86,14.34
Honiara,SB,-9.4333,159.95,47,83.07,83.07,83.07,75,5.95
Sinnamary,GF,5.3833,-52.95,96,76.14,76.14,76.14,88,2.8
Aklavik,CA,68.2191,-135.0107,100,62.6,62.6,62.6,72,4.27
Hong Kong,HK,22.2855,114.1577,99,81.46,82.45,78.94,87,18.99
Mareeba,AU,-17.0,145.4333,17,76.39,76.44,72.32,58,6.6
Pangnirtung,CA,66.1451,-65.7125,100,41.97,41.97,41.97,98,4.36
Copiapó,CL,-27.3667,-70.3333,6,49.69,49.69,49.69,62,0.45
Kon Tum,VN,14.35,108.0,100,76.91,76.91,76.91,89,3.53
Sakaiminato,JP,35.55,133.2333,75,76.98,76.98,76.93,94,12.66
San Andrés del Rabanedo,ES,42.6117,-5.6167,0,61.23,63.5,59.72,82,5.99
Kumul,CN,42.8,93.45,100,83.14,83.14,83.14,10,3.47
Nur-Sultan,KZ,51.1801,71.446,0,60.75,60.75,60.75,48,2.24
Leningradskiy,RU,69.3833,178.4167,68,44.69,44.69,44.69,76,8.43
Berlevåg,NO,70.8578,29.0864,75,51.75,51.75,50.0,76,11.5
Flin Flon,CA,54.7682,-101.865,32,57.61,57.61,57.61,61,6.51
Zhenlai,CN,45.8495,123.2973,19,70.83,70.83,70.83,37,15.52
Plettenberg Bay,ZA,-34.0527,23.3716,8,64.74,64.74,64.74,62,7.09
Sørland,NO,67.667,12.6934,100,53.46,53.46,53.46,71,7.63
Faya,SA,18.3851,42.4509,91,66.72,68.11,66.72,42,4.27
Goundam,ML,16.4145,-3.6708,12,82.9,82.9,82.9,61,9.69
Dunedin,NZ,-45.8742,170.5036,100,51.8,51.8,51.8,65,11.99
Kalmunai,LK,7.4167,81.8167,52,86.86,86.86,86.86,56,4.47
Arrondissement d'Ajaccio,FR,42.0,8.9167,0,64.38,66.25,64.38,78,8.05
Ribeira Grande,PT,38.5167,-28.7,94,73.22,73.22,73.22,77,7.05
Saskylakh,RU,71.9167,114.0833,100,43.39,43.39,43.39,91,11.52
Nanortalik,GL,60.1432,-45.2371,100,44.33,44.33,44.33,95,3.96
Salinas,US,36.6777,-121.6555,100,59.54,65.41,55.76,84,8.05
Mossamedes,AO,-15.1961,12.1522,20,60.03,60.03,60.03,89,8.28
Cabo San Lucas,MX,22.8909,-109.9124,7,86.49,87.1,85.17,67,5.01
Steamboat Springs,US,40.485,-106.8317,0,64.89,71.19,55.54,44,6.91
Ambulu,ID,-8.345,113.6058,72,84.43,84.43,84.43,62,9.08
College,US,64.8569,-147.8028,75,62.87,65.21,60.91,64,4.61
Kismayo,SO,-0.3582,42.5454,49,74.91,74.91,74.91,81,15.52
San Carlos del Zulia,VE,9.0,-71.9135,77,75.78,75.78,75.78,85,1.3
Halifax,CA,44.6453,-63.5724,83,69.46,69.8,68.49,97,5.99
Nikolskoye,RU,59.7035,30.7861,100,66.78,69.8,62.78,68,3.89
Musiri,IN,10.9333,78.45,100,82.44,82.44,82.44,72,10.13
Mandalgovi,MN,45.7625,106.2708,0,60.64,60.64,60.64,30,15.5
Nouadhibou,MR,20.931,-17.0347,75,76.98,76.98,76.98,73,12.66
Cockburn Town,TC,21.4612,-71.1419,1,83.57,83.57,83.57,76,19.86
Emerald,AU,-23.5333,148.1667,0,65.34,65.34,65.34,32,13.33
Tasiilaq,GL,65.6145,-37.6368,1,35.55,35.55,35.55,74,6.98
Upington,ZA,-28.4478,21.2561,0,62.98,62.98,62.98,31,11.5
Uşak Province,TR,38.5,29.4167,82,57.18,57.18,57.18,76,1.39
Butaritari,KI,3.0707,172.7902,93,82.31,82.31,82.31,67,6.04
Paracuru,BR,-3.41,-39.0306,80,79.11,79.11,79.11,82,14.14
Bethel,US,41.3712,-73.414,75,72.01,76.62,68.43,76,4.61
Ixtapa,MX,20.7,-105.2,75,79.83,81.23,79.83,89,5.75
Broken Hill,AU,-31.95,141.4333,75,57.33,57.33,57.33,55,11.81
Edd,ER,13.9297,41.6925,25,89.56,89.56,89.56,64,2.93
Aripuanã,BR,-9.1667,-60.6333,97,81.19,81.19,81.19,39,1.07
Traverse City,US,44.7631,-85.6206,0,67.77,69.87,64.99,92,3.44
Parakou,BJ,9.3372,2.6303,100,68.36,68.36,68.36,97,3.51
Coquimbo,CL,-29.9533,-71.3436,100,53.33,53.33,53.33,93,5.75
Pasni,PK,25.2631,63.471,100,80.8,80.8,80.8,85,14.34
Lagoa,PT,39.05,-27.9833,38,72.14,72.14,72.14,77,10.18
Kitsuki,JP,33.4167,131.6167,40,85.8,85.8,85.8,58,13.8
Boca do Acre,BR,-8.7522,-67.3978,49,76.35,76.35,76.35,48,1.19
Kouango,CF,4.9934,19.9619,79,68.11,68.11,68.11,99,3.27
Pinkafeld,AT,47.3667,16.1167,91,64.76,65.98,64.76,82,4.0
Dingle,PH,10.9995,122.6711,50,85.87,85.87,85.87,74,7.14
Kondinskoye,RU,59.6481,67.41,62,68.31,68.31,68.31,56,9.17
Dikson,RU,73.5069,80.5464,100,38.62,38.62,38.62,86,28.88
Itaituba,BR,-4.2761,-55.9836,69,74.34,74.34,74.34,80,0.43
Berasia,IN,23.6333,77.4333,80,75.65,75.65,75.65,81,8.84
Progreso,MX,21.2833,-89.6667,6,77.11,77.11,77.11,82,10.16
Zhigansk,RU,66.7697,123.3711,8,52.83,52.83,52.83,53,7.07
East London,ZA,-33.0153,27.9116,0,81.54,81.54,81.54,21,11.5
Clyde River,CA,70.4692,-68.5914,100,35.83,35.83,35.83,93,11.5
Bathsheba,BB,13.2167,-59.5167,75,79.41,79.41,79.41,89,6.91
Dicabisagan,PH,17.0818,122.4157,96,88.43,88.43,88.43,68,10.85
La Asuncion,VE,11.0333,-63.8628,40,80.33,80.33,80.33,89,8.05
Kedrovyy,RU,56.1667,91.8167,59,60.87,61.21,60.87,82,7.23
Bayir,TR,37.2687,28.2167,8,63.12,63.12,63.12,81,1.97
Soure,BR,-0.7167,-48.5233,68,78.69,78.69,78.69,84,8.99
Ankara,TR,39.9199,32.8543,40,66.88,68.2,62.15,77,6.91
Santa Cruz de La Palma,ES,28.6835,-17.7642,100,73.54,73.54,73.54,73,13.8
Syracuse,IT,37.0881,15.2792,0,67.37,69.39,67.37,66,8.39
Yellowknife,CA,62.456,-114.3525,75,64.92,66.56,64.92,63,8.05
Pochutla,MX,15.7432,-96.4661,100,77.83,80.42,77.83,89,2.82
Maceió,BR,-9.6658,-35.7353,40,71.04,71.04,71.04,94,5.75
Airai,TL,-8.9266,125.4092,100,68.27,68.27,68.27,55,5.84
Nuuk,GL,64.1835,-51.7216,100,43.41,43.41,41.88,93,25.32
Sungai Penuh,ID,-2.0833,101.3833,67,76.35,76.35,76.35,66,5.21
Geraldton,AU,-28.7667,114.6,3,70.21,70.21,70.21,46,12.66
Iracoubo,GF,5.4802,-53.2011,75,75.87,75.87,75.87,88,2.06
Naviraí,BR,-23.065,-54.1906,23,64.17,64.17,64.17,75,5.59
Mahébourg,MU,-20.4081,57.7,20,68.29,68.29,66.25,73,10.36
Bintulu,MY,3.1667,113.0333,20,84.61,84.61,84.61,79,4.61
Acapulco de Juárez,MX,16.8634,-99.8901,75,82.22,82.22,82.22,78,5.75
Severo-Kuril'sk,RU,50.6789,156.125,11,58.32,58.32,58.32,69,15.79
Beringovskiy,RU,63.05,179.3167,100,48.87,48.87,48.87,96,21.43
Provideniya,RU,64.3833,-173.3,100,44.71,44.71,44.37,100,13.42
Bammatyurt,RU,43.3432,46.6085,0,76.91,76.91,76.91,41,19.24
Karsun,RU,54.1994,46.9827,10,68.02,68.02,68.02,48,2.01
Dakar,SN,14.6937,-17.4441,100,79.68,79.68,79.68,78,8.05
Vila Velha,BR,-20.3297,-40.2925,100,68.95,71.55,68.95,95,13.8
Paralímni,CY,35.0375,33.9833,0,77.05,77.14,75.69,86,8.01
Longyearbyen,SJ,78.2186,15.6401,75,44.44,44.44,44.44,81,12.66
Haines Junction,CA,60.7522,-137.5108,100,57.15,57.15,57.15,72,4.61
Katsuura,JP,35.1333,140.3,51,81.1,81.1,81.1,80,7.94
Norsup,VU,-16.0667,167.3833,24,81.27,81.27,81.27,72,12.37
Weligama,LK,5.9667,80.4167,49,80.85,80.85,80.85,81,14.23
Gambēla,ET,8.25,34.5833,100,70.54,70.54,70.54,82,2.44
Dourbali,TD,11.8091,15.8632,98,71.06,71.06,71.06,96,5.28
Marsh Harbour,BS,26.5412,-77.0636,55,83.39,83.39,83.39,74,8.7
Ulladulla,AU,-35.35,150.4667,56,63.77,63.77,63.77,51,10.8
Mogadishu,SO,2.0371,45.3438,87,75.31,75.31,75.31,86,17.85
Upernavik,GL,72.7868,-56.1549,80,40.44,40.44,40.44,77,12.71
Tevaitoa,PF,-16.7833,-151.5,22,76.48,76.48,76.48,80,13.38
Ratnagiri,IN,16.9833,73.3,62,80.29,80.29,80.29,78,3.2
Kungurtug,RU,50.5994,97.5228,75,54.88,54.88,54.88,50,3.65
São Filipe,CV,14.8961,-24.4956,100,77.09,77.09,77.09,82,6.58
Namtsy,RU,62.7161,129.6658,84,59.11,59.11,59.11,52,12.24
Myitkyina,MM,25.3833,97.4,100,90.09,90.09,90.09,62,2.55
Burla,IN,21.5,83.8667,98,76.08,76.08,76.08,92,5.77
Fonte Boa,BR,-2.4959,-66.2662,16,72.09,72.09,72.09,84,3.18
Quatre Cocos,MU,-20.2078,57.7625,57,66.09,68.11,66.09,62,16.53
Ilulissat,GL,69.2167,-51.1,100,50.02,50.02,50.02,53,2.3
Lázaro Cárdenas,MX,17.9583,-102.2,35,79.68,79.68,79.68,79,4.5
Athmallik,IN,20.7219,84.5348,48,82.63,82.63,82.63,78,5.86
Vanimo,PG,-2.6741,141.3028,69,85.33,85.33,85.33,69,9.51
Chui,UY,-33.6971,-53.4616,16,54.91,54.91,54.91,93,4.54
Posse,BR,-14.0931,-46.3694,14,66.4,66.4,66.4,45,6.8
Waipawa,NZ,-41.4122,175.5153,100,52.12,52.12,52.12,72,9.95
Kavieng,PG,-2.5744,150.7967,18,83.28,83.28,83.28,71,5.68
Iqaluit,CA,63.7506,-68.5145,40,41.7,41.7,40.73,81,8.99
Bulgan,MN,48.8125,103.5347,29,57.78,57.78,57.78,44,9.48
Manoel Urbano,BR,-8.8389,-69.2597,5,73.94,73.94,73.94,48,1.01
Jackson,US,42.4165,-122.8345,0,88.12,89.47,78.04,31,11.5
Saint George,US,37.1041,-113.5841,0,88.39,88.39,88.39,29,16.11
Saldanha,ZA,-33.0117,17.9442,49,57.2,57.2,57.2,81,24.87
Bereket,TM,39.2446,55.5154,0,77.4,77.4,77.4,22,7.2
Esperance,AU,-33.8667,121.9,100,57.9,57.9,57.9,59,11.21
Narsaq,GL,60.9167,-46.05,100,44.82,44.82,44.82,92,0.65
Kuril'sk,RU,45.2333,147.8833,99,65.12,65.12,65.12,63,1.25
Gouré,NE,13.9835,10.2704,100,70.02,70.02,70.02,73,18.68
Ardakān,IR,32.31,54.0175,0,74.25,74.25,74.25,13,8.88
Opuwo,NA,-18.0607,13.84,5,59.59,59.59,59.59,29,3.02
Chokurdakh,RU,70.6333,147.9167,37,50.5,50.5,50.5,53,13.2
Los Llanos de Aridane,ES,28.6585,-17.9182,100,69.55,69.55,69.55,73,13.8
Slidell,US,30.2752,-89.7812,0,76.51,79.0,74.48,91,3.44
Sola,VU,-13.8833,167.55,42,83.07,83.07,83.07,89,2.3
Alice Springs,AU,-23.7,133.8833,0,57.22,60.35,57.22,26,14.97
Constitución,CL,-35.3333,-72.4167,0,51.31,51.31,51.31,90,9.01
Piranhas,BR,-16.4269,-51.8222,36,70.57,70.57,70.57,34,5.7
‘Āhuimanu,US,21.4447,-157.8378,0,81.01,83.91,79.79,75,12.66
Abu Samrah,SY,35.3029,37.1841,0,70.61,70.61,70.61,69,6.42
Brae,GB,60.3964,-1.353,79,55.0,55.0,55.0,90,10.38
Port Shepstone,ZA,-30.7414,30.455,0,63.91,63.91,63.91,53,9.51
Ust'ye,RU,59.6304,39.736,19,66.07,66.07,66.07,61,4.72
Portland,US,45.5234,-122.6762,20,84.16,87.89,79.47,50,12.66
Gangarampur,IN,25.4,88.5167,41,88.25,88.25,88.25,63,8.03
Kiryat Gat,IL,31.61,34.7642,0,75.16,79.39,74.08,72,5.66
Pangai,TO,-19.8,-174.35,40,80.71,80.71,80.71,65,13.8
Isangel,VU,-19.55,169.2667,75,84.31,84.31,84.31,74,4.61
Souillac,MU,-20.5167,57.5167,20,68.38,68.38,68.38,73,10.36
Anshun,CN,26.25,105.9333,100,81.32,81.32,81.32,57,8.77
Borba,BR,-4.3878,-59.5939,10,75.2,75.2,75.2,74,2.77
Nouakchott,MR,18.0858,-15.9785,99,79.27,79.27,79.27,84,14.7
Tabuk,PH,17.4189,121.4443,36,86.7,86.7,86.7,69,5.41
Kahului,US,20.8947,-156.47,20,84.92,87.82,78.31,64,14.97
Canelli,IT,44.7215,8.2924,53,68.95,73.11,65.08,85,2.46
Cidreira,BR,-30.1811,-50.2056,16,60.24,60.24,60.24,90,6.8
Vasterhaninge,SE,59.1167,18.1,2,51.67,51.84,47.73,95,6.71
Kaitangata,NZ,-46.2817,169.8464,100,51.55,51.55,51.55,62,2.26
Laguna,US,38.421,-121.4238,0,81.3,90.32,74.28,43,6.91
Hidalgo,MX,20.5,-99.0,85,60.31,60.31,60.31,78,4.32
North Bend,US,43.4065,-124.2243,100,62.65,65.91,60.08,94,6.91
Auki,SB,-8.7676,160.7034,43,83.08,83.08,83.08,68,6.8
Tezu,IN,27.9167,96.1667,87,86.34,86.34,86.34,79,3.74
Yangi Marg`ilon,UZ,40.4272,71.7189,75,77.72,77.72,77.72,31,6.91
Diffa,NE,13.3154,12.6113,100,72.64,72.64,72.64,84,5.64
Port Keats,AU,-14.25,129.55,5,84.33,84.33,84.33,14,11.86
Tilichiki,RU,60.4667,166.1,100,51.55,51.55,51.55,97,6.89
La Rioja,ES,42.25,-2.5,46,62.38,62.38,62.38,78,2.37
Tondano,ID,1.3038,124.9112,16,82.49,82.49,82.49,57,4.72
Price,US,39.5994,-110.8107,0,76.26,76.26,75.11,27,11.5
Srednekolymsk,RU,67.45,153.6833,98,53.69,53.69,53.69,71,17.0
Roald,NO,62.5833,6.1333,20,62.38,72.52,60.94,94,5.75
Lethem,GY,3.3803,-59.7968,100,71.6,71.6,71.6,91,2.64
Marabá,BR,-5.3686,-49.1178,20,73.58,73.58,73.58,100,0.0
Qaqortoq,GL,60.7167,-46.0333,100,45.21,45.21,45.21,91,2.1
Caravelas,BR,-17.7125,-39.2481,5,68.2,68.2,68.2,89,5.08
Taltal,CL,-25.4,-70.4833,19,57.79,57.79,57.79,74,4.72
Quelimane,MZ,-17.8786,36.8883,20,62.55,62.55,62.55,94,2.3
Armidale,AU,-30.5167,151.65,5,53.02,53.02,53.02,51,9.08
Adrar,MR,20.5022,-10.0711,86,92.05,92.05,92.05,40,11.72
Lleida,ES,41.6167,0.6167,0,67.95,68.2,67.95,89,5.75
Amuntai,ID,-2.4177,115.2494,100,82.36,82.36,82.36,79,4.72
Te Anau,NZ,-45.4167,167.7167,99,43.74,43.74,43.74,81,2.95
Maputo,MZ,-25.9653,32.5892,0,58.68,58.68,58.68,94,3.44
Uspenka,UA,48.3903,39.1619,0,71.55,71.55,71.55,34,12.91
Forssa,FI,60.8146,23.6215,39,55.04,58.68,54.99,98,5.48
Quepos,CR,9.4236,-84.1652,82,76.28,76.28,76.28,88,5.01
Shimoda,JP,34.6667,138.95,51,82.11,82.11,80.96,79,6.15
Davao,PH,6.813,125.7085,97,87.98,87.98,87.98,74,0.4
Porto-Novo,BJ,6.4965,2.6036,100,75.02,75.02,75.02,90,4.54
Natal,BR,-5.795,-35.2094,0,73.62,73.62,72.25,88,9.22
Champerico,GT,14.3,-91.9167,100,76.23,76.23,76.23,90,6.76
Iskateley,RU,67.6803,53.1512,100,49.55,49.55,49.55,72,6.49
Ambilobe,MG,-13.2,49.05,9,68.43,68.43,68.43,61,5.19
Mariental,NA,-24.6333,17.9667,0,59.9,59.9,59.9,26,8.39
Sobral,BR,-3.6861,-40.3497,62,75.22,75.22,75.22,81,3.18
Ashland,US,40.8167,-82.2665,20,65.75,69.22,61.99,88,2.53
Krasnosel'kup,RU,65.7,82.4667,56,53.49,53.49,53.49,68,19.8
Soller,ES,39.7662,2.7152,25,76.75,77.85,73.02,80,1.5
Bafia,CM,4.75,11.2333,99,66.85,66.85,66.85,99,1.25
Panabá,MX,21.2833,-88.2667,31,75.24,75.24,75.24,90,7.52
Shingū,JP,33.7333,135.9833,39,88.59,88.59,88.59,69,5.23
Mar del Plata,AR,-38.0023,-57.5575,100,58.64,59.09,51.82,71,4.0
Tarakan,ID,3.3,117.6333,75,81.9,81.9,81.9,78,3.44
Aksu,CN,41.1231,80.2644,100,77.14,77.14,77.14,33,15.3
Benjamin Constant,BR,-4.3831,-70.0311,42,73.24,73.24,73.24,65,1.14
Kitimat,CA,54.0524,-128.6534,0,76.91,84.58,76.91,56,2.33
Itaberaí,BR,-16.0203,-49.8103,41,68.95,68.95,68.95,41,6.55
Warri,NG,5.5167,5.75,100,74.08,74.08,74.08,90,1.21
Arvika,SE,59.6553,12.5852,18,48.81,48.81,48.81,82,2.3
Henties Bay,NA,-22.116,14.2845,99,56.28,56.28,56.28,84,7.54
Porto Velho,BR,-8.7619,-63.9039,32,75.25,75.25,75.25,83,0.0
Ilhabela,BR,-23.7781,-45.3581,94,67.59,67.59,67.59,94,10.0
Mount Gambier,AU,-37.8333,140.7667,100,53.71,53.71,53.71,71,6.26
Raudeberg,NO,61.9875,5.1352,100,61.86,61.86,59.67,1,19.35
Husavik,IS,66.0449,-17.3389,100,47.5,47.5,47.5,99,9.84
Margate,GB,51.3813,1.3862,81,67.87,70.3,67.1,95,1.01
Nhulunbuy,AU,-12.2333,136.7667,75,79.41,79.41,79.41,53,17.27
Sibolga,ID,1.7427,98.7792,97,77.22,77.22,77.22,91,2.93
Bilma,NE,18.6853,12.9164,6,85.3,85.3,85.3,50,12.82
Guerrero Negro,MX,27.9769,-114.0611,6,74.34,74.34,74.34,81,13.78
Kifrī,IQ,34.6959,44.9661,0,90.61,90.61,90.61,24,3.11
Yumen,CN,40.2833,97.2,41,80.31,80.31,80.31,25,21.5
Saint-François,FR,46.4154,3.9054,0,56.64,56.68,56.64,88,0.0
Mabaruma,GY,8.2,-59.7833,99,72.81,72.81,72.81,98,1.88
Jeremoabo,BR,-10.075,-38.4808,31,60.04,60.04,60.04,97,3.8
Padang,ID,-0.9492,100.3543,94,80.65,80.65,80.65,81,3.27
Bilibino,RU,68.0546,166.4372,100,61.38,61.38,61.38,54,15.26
Betanzos,ES,43.2804,-8.2147,100,65.57,68.11,64.09,89,5.75
Port Hardy,CA,50.6996,-127.4199,0,62.78,62.78,55.4,88,3.44
Tiznit Province,MA,29.5833,-9.5,7,73.9,73.9,73.9,57,2.08
Changji,CN,44.0167,87.3167,0,74.19,74.19,74.19,27,2.24
Gawler,AU,-34.6,138.7333,97,57.96,60.48,54.36,85,7.72
Bereda,ES,43.2686,-7.5406,100,64.15,67.41,64.15,100,2.84
North Platte,US,41.1239,-100.7654,0,77.85,82.38,73.29,49,8.05
Santa Vitória do Palmar,BR,-33.5189,-53.3681,20,55.51,55.51,55.51,90,4.34
Yatou,CN,37.15,122.3833,100,67.06,67.06,67.06,82,7.92
Hoi An,VN,15.8794,108.335,100,93.16,93.16,93.16,65,5.23
Zomin,UZ,39.9606,68.3958,0,77.2,77.2,77.2,14,4.97
Port Hawkesbury,CA,45.6169,-61.3485,49,69.33,70.03,67.89,95,3.0
Salekhard,RU,66.53,66.6019,86,54.27,54.27,54.27,56,15.66
Mayo,US,38.8876,-76.5119,0,71.08,77.18,67.5,87,1.01
Juba,SS,4.8517,31.5825,89,65.98,65.98,65.98,97,2.04
Broome,US,42.2506,-75.833,7,62.55,66.99,58.91,82,1.1
Lac du Bonnet,CA,50.2536,-96.0612,40,52.9,52.9,52.9,78,5.61
Muros,ES,42.7762,-9.0603,87,69.13,70.16,67.68,78,8.72
Sisimiut,GL,66.9395,-53.6735,97,43.66,43.66,43.66,89,3.33
Hargeisa,SO,9.56,44.065,1,66.76,66.76,66.76,64,29.3
Necochea,AR,-38.5473,-58.7368,100,53.08,53.08,53.08,72,0.92
Yei,SS,4.095,30.6779,83,63.14,63.14,63.14,90,3.87
Elko,US,41.0002,-115.5012,97,71.78,74.23,70.74,36,13.0
Melivoia,GR,39.75,22.8,100,62.98,62.98,62.06,91,5.86
Talnakh,RU,69.4865,88.3972,100,49.21,49.21,49.21,83,4.32
Mazyr,BY,52.0495,29.2456,0,62.6,62.6,62.6,52,6.69
Ahipara,NZ,-35.1667,173.1667,73,63.39,63.39,63.39,85,16.46
Namatanai,PG,-3.6667,152.4333,73,83.61,83.61,83.61,70,6.4
Evensk,RU,61.95,159.2333,100,54.81,54.81,54.81,77,6.62
Luwuk,ID,-0.9516,122.7875,19,83.37,83.37,83.37,78,4.45
Marang,MY,5.2056,103.2059,100,85.93,85.93,85.91,61,5.53
Codrington,AU,-38.2667,141.9667,100,53.71,53.71,53.71,79,10.02
Tutóia,BR,-2.7619,-42.2744,43,77.18,77.18,77.18,89,12.06
Meadow Lake,US,34.8014,-106.5436,48,72.27,76.12,66.58,72,7.96
Mbini,GQ,1.574,9.6134,100,74.95,74.95,74.95,87,6.73
Tripoli,LY,32.8752,13.1875,0,77.13,77.13,77.13,68,3.06
Wysokie Mazowieckie,PL,52.9166,22.5171,49,64.63,64.63,64.63,56,4.72
Camaná,PE,-16.6228,-72.7111,59,58.98,58.98,58.98,81,6.73
Bonavista,CA,48.6499,-53.1147,100,64.49,64.49,64.49,94,7.31
Meulaboh,ID,4.1363,96.1285,100,75.63,75.63,75.63,92,2.42
Benjamín Aceval,PY,-24.9667,-57.5667,6,77.14,77.14,77.14,63,6.8
Beloha,MG,-25.1667,45.05,16,63.46,63.46,63.46,82,10.92
Westport,US,41.1415,-73.3579,75,74.19,78.75,70.32,83,3.44
Tessalit,ML,20.1986,1.0114,98,83.73,83.73,83.73,53,6.8
Puerto Escondido,MX,15.85,-97.0667,97,79.61,79.61,79.61,85,3.13
Zaragoza,ES,41.6561,-0.8773,28,69.8,69.8,67.44,64,5.01
Noumea,NC,-22.2763,166.4572,70,77.0,77.0,75.18,99,7.11
Wajir,KE,1.7471,40.0573,4,71.28,71.28,71.28,75,13.11
Moose Jaw,CA,50.4001,-105.5344,92,59.25,59.25,59.25,72,6.91
Talara,PE,-4.5772,-81.2719,10,63.93,63.93,63.93,87,15.46
Yiyang,CN,28.5892,112.3283,81,90.63,90.63,90.63,59,6.4
Kathu,TH,7.9178,98.3332,100,83.7,84.02,83.7,99,9.66
Ahtopol,BG,42.1,27.95,96,71.94,71.94,71.94,83,8.19
Ouadda,CF,8.0777,22.4007,100,67.37,67.37,67.37,98,3.38
Beisfjord,NO,68.3751,17.5988,71,54.05,54.05,46.45,57,6.87
Pangkalanbuun,ID,-2.6833,111.6167,86,83.35,83.35,83.35,74,5.19
São João da Barra,BR,-21.6403,-41.0511,98,69.33,69.33,69.33,85,14.5
Aldan,RU,58.6031,125.3894,100,45.09,45.09,45.09,88,6.11
Urbano Santos,BR,-3.2078,-43.4036,77,74.88,74.88,74.88,90,4.18
Brooks,CA,50.5834,-111.8851,22,64.31,70.03,62.58,64,3.44
Srandakan,ID,-7.9386,110.2506,95,80.28,80.28,80.28,70,15.17
City of San Pedro,PH,14.35,121.0167,40,88.72,90.36,88.27,66,6.91
Ulaanbaatar,MN,47.9077,106.8832,40,53.73,53.73,53.73,54,13.42
Sambava,MG,-14.2667,50.1667,41,68.59,68.59,68.59,76,12.24
Severnoye,RU,56.3491,78.3619,5,67.77,67.77,67.77,63,8.34
Chara,RU,56.9064,118.2631,100,47.25,47.25,47.25,83,6.46
San Cristobal,VE,7.7669,-72.225,53,64.94,64.94,64.94,93,3.44
Avera,US,33.194,-82.5271,84,75.56,76.51,72.91,81,2.71
Araouane,ML,18.9048,-3.5265,69,88.18,88.18,88.18,48,5.86
Aswān,EG,24.0934,32.907,0,87.1,87.1,87.1,15,5.75
Fairbanks,US,64.8378,-147.7164,75,63.03,65.23,60.93,65,4.61
Miraflores,MX,19.2167,-98.8083,97,66.87,67.03,66.85,85,3.85
Inuvik,CA,68.3499,-133.7218,100,63.41,63.46,61.81,74,2.3
Brandon,US,27.9378,-82.2859,97,76.35,80.46,73.54,94,5.01
Mēga,ET,4.05,38.3,78,54.14,54.14,54.14,90,12.46
Nova Viçosa,BR,-17.8919,-39.3719,26,69.35,69.35,69.35,88,7.16
Careiro da Várzea,BR,-3.2003,-59.8119,23,83.01,83.01,77.63,82,3.96
Sicamous,CA,50.8331,-118.9856,10,76.17,76.17,72.19,56,3.85
Mankera,PK,31.3866,71.4407,92,85.35,85.35,85.35,67,10.2
Ţalkhā,EG,31.0539,31.3779,0,74.98,74.98,74.98,84,5.64
Khāmgaon,IN,20.6833,76.5667,38,79.74,79.74,79.74,75,9.82
Vostok,RU,46.4856,135.8833,7,71.17,71.17,71.17,38,3.71
Seymchan,RU,62.8833,152.4333,100,48.09,48.09,48.09,85,13.6
Bayan,CN,46.0833,127.4,86,64.35,64.35,64.35,84,12.01
Tuy Hoa,VN,13.0833,109.3,100,89.62,89.62,89.62,58,6.22
La Libertad,EC,-2.2333,-80.9,100,69.46,69.46,69.46,88,11.5
Montluçon,FR,46.3333,2.6,50,64.89,64.89,64.89,57,3.91
Guiglo,CI,6.5456,-7.4966,43,66.18,66.18,66.18,99,2.26
Half Moon Bay,US,37.4636,-122.4286,100,59.56,69.58,54.3,87,12.66
Amethī,IN,26.15,81.8167,69,88.83,88.83,88.83,64,6.8
Lakota,CI,5.8528,-5.6883,5,66.22,66.22,66.22,96,2.13
Naberera,TZ,-4.2,36.9333,39,54.57,54.57,54.57,87,6.29
Houma,US,29.5958,-90.7195,100,77.04,78.01,75.99,93,0.0
Salalah,OM,17.0151,54.0924,97,74.59,74.59,74.59,95,3.04
Touros,BR,-5.1989,-35.4608,77,71.46,71.46,71.46,81,15.37
Niles,US,42.0189,-87.8028,0,69.96,74.89,63.52,72,0.0
Asău,RO,46.4333,26.4,66,61.72,61.72,61.29,56,6.44
Mata,PT,40.683,-7.4592,52,63.93,63.93,62.76,94,2.68
Sinazongwe,ZM,-17.2614,27.4618,5,63.3,63.3,63.3,68,5.3
Atambua,ID,-9.1061,124.8925,99,82.6,82.6,82.6,47,4.79
Esim,GH,4.8699,-2.2405,43,72.21,72.21,72.21,91,1.95
Saint-Joseph,RE,-21.3667,55.6167,17,64.53,64.78,62.1,75,12.33
Chifeng,CN,42.2683,118.9636,1,75.49,75.49,75.49,27,17.78
Christchurch,NZ,-43.5333,172.6333,75,51.57,52.92,49.48,83,10.36
Concepción,CL,-36.827,-73.0498,0,48.0,48.0,48.0,76,4.61
Dhandhuka,IN,22.3667,71.9833,69,82.78,82.78,82.78,70,10.33
Boyabat,TR,41.4689,34.7667,2,70.97,70.97,70.97,74,1.95
Bandar-e Lengeh,IR,26.5579,54.8807,99,89.71,89.71,89.71,74,6.91
Vestmannaeyjar,IS,63.4427,-20.2734,99,51.69,51.69,51.69,93,4.65
Karratha,AU,-20.7377,116.8463,70,76.91,76.91,76.91,19,20.38
Oudtshoorn,ZA,-33.5907,22.2014,0,52.16,52.16,52.16,55,11.88
Laas,IT,46.6166,10.7002,57,61.68,61.68,56.7,88,1.83
Sitka,US,57.0531,-135.33,100,62.49,62.49,62.49,82,0.0
Lavrentiya,RU,65.5833,-171.0,100,41.67,41.67,41.67,83,7.52
Matagami,CA,49.7502,-77.6328,75,44.71,44.71,44.71,81,5.75
Methóni,GR,36.8197,21.7049,4,64.26,71.22,64.26,78,8.39
Mudon,MM,16.2578,97.7164,100,82.6,82.6,82.6,82,4.85
Nantucket,US,41.2835,-70.0995,40,71.06,75.31,70.14,75,6.91
Rognan,NO,67.0953,15.3878,98,59.02,59.14,58.87,71,7.18
Hasaki,JP,35.7333,140.8333,55,81.0,82.29,81.0,79,9.55
Abonnema,NG,4.7084,6.7931,100,73.54,73.54,73.54,91,3.98
Mgandu,TZ,-5.95,34.1333,0,55.31,55.31,55.31,65,7.25
Pacific Grove,US,36.6177,-121.9166,100,58.03,63.21,55.35,92,6.91
Pemangkat,ID,1.1667,108.9667,98,81.55,81.55,81.55,75,5.68
Gebre Guracha,ET,9.8,38.4,75,50.47,50.47,50.47,96,1.95
Khorramabad,IR,33.4878,48.3558,75,78.42,78.42,78.42,17,9.22
Baijiantan,CN,45.6333,85.1833,100,80.47,80.47,80.47,14,3.42
Abu Dhabi,AE,24.4667,54.3667,0,89.13,91.42,86.97,61,5.75
Springbok,ZA,-29.6643,17.8865,100,43.38,43.38,43.38,100,10.36
Alofi,NU,-19.0595,-169.9187,75,78.69,78.69,78.69,69,16.11
San Miguel de Cozumel,MX,20.5083,-86.9458,40,81.0,81.0,78.87,86,0.0
Vokhma,RU,58.9303,46.7586,11,67.48,67.48,67.48,63,3.87
Mathathane,BW,-22.2687,28.7495,0,52.18,52.18,52.18,69,3.83
Guhāgar,IN,17.4842,73.1929,52,80.73,80.73,80.73,78,3.49
Elverum,NO,60.8819,11.5623,67,52.3,52.3,52.3,94,3.2
Hofn,IS,64.2539,-15.2082,100,49.71,49.71,49.71,79,5.95
Callaway,US,30.153,-85.5699,40,78.75,79.95,76.91,87,4.0
San Patricio,US,28.017,-97.5169,100,82.89,87.69,79.18,80,5.06
Bahía Blanca,AR,-38.7196,-62.2724,100,56.34,56.34,56.34,24,1.19
Honningsvåg,NO,70.9821,25.9704,100,47.95,47.95,47.95,93,0.0
Paamiut,GL,61.994,-49.6678,100,41.59,41.59,41.59,97,7.45
Imeni Stepana Razina,RU,54.8932,44.2963,11,69.53,69.53,69.53,45,3.8
Mthatha,ZA,-31.5889,28.7844,0,59.56,59.56,59.56,38,2.3
Tønder,DK,54.9331,8.8667,80,63.1,66.24,62.96,91,9.08
Dali,CN,25.7,100.1833,95,75.58,75.58,75.58,67,2.04
Northam,GB,51.0333,-4.2167,100,59.05,60.62,56.25,82,6.35
Walvis Bay,NA,-22.9575,14.5053,23,54.09,54.09,54.09,92,4.59
Namie,JP,37.4833,141.0,96,77.99,77.99,77.99,70,1.01
Klaksvík,FO,62.2266,-6.589,49,52.72,52.72,52.72,88,22.97
Summerside,CA,46.3959,-63.7876,88,66.29,66.33,64.47,94,3.44
Mitchell,US,43.7094,-98.0298,0,73.24,73.38,69.75,75,9.22
Hanna,CA,51.6334,-111.9018,87,66.85,66.85,66.85,43,3.0
Takoradze,GH,4.8845,-1.7554,55,72.3,72.3,72.3,91,0.34
Gravdal,NO,68.1214,13.5031,0,53.49,53.49,53.49,76,4.61
Chaumont,FR,48.1167,5.1333,11,64.49,64.49,64.49,68,5.41
Mushie,CD,-3.0167,16.9,62,70.7,70.7,70.7,90,2.57
Neya,RU,58.2972,43.8681,79,67.44,67.44,67.44,57,3.15
Mikuni,JP,36.2171,136.1519,100,76.91,76.91,76.91,85,4.59
Gemena,CD,3.25,19.7667,100,69.19,69.19,69.19,100,2.48
Hurricane,US,37.1753,-113.2899,78,86.47,86.47,79.14,61,4.45
Krāslava,LV,55.8951,27.168,99,63.84,63.84,63.84,65,3.89
Fukuechō,JP,32.6881,128.8419,75,82.76,82.76,82.76,74,5.75
Sarangani,PH,5.4033,125.4636,11,83.64,83.64,83.64,72,14.14
Lodja,CD,-3.4833,23.4333,26,70.45,70.45,70.45,85,1.81
Simplício Mendes,BR,-7.8539,-41.9103,90,73.78,73.78,73.78,56,10.09
Lima,PE,-12.0432,-77.0282,100,59.9,59.9,57.45,85,5.75
Russell,US,32.3502,-85.1999,100,71.28,73.0,70.75,94,0.0
Baharly,TM,38.4362,57.4316,0,78.8,78.8,78.8,19,4.36
Igarka,RU,67.4667,86.5833,96,50.65,50.65,50.65,86,13.56
Awjilah,LY,29.1081,21.2869,0,75.72,75.72,75.72,53,4.5
Ballina,AU,-28.8667,153.5667,0,67.78,67.78,67.78,42,9.08
Nakusp,CA,50.2499,-117.8023,77,66.54,66.54,64.47,72,2.3
Katherine,AU,-14.4667,132.2667,4,75.52,75.52,75.52,11,11.5
Anūpgarh,IN,29.1911,73.2086,15,85.44,85.44,85.44,61,12.41
Gourcy,BF,13.2167,-2.35,30,72.77,72.77,72.77,89,6.06
La Ronge,CA,55.1001,-105.2842,0,66.45,68.22,66.45,63,4.61
Alta Floresta,BR,-9.8756,-56.0861,84,80.44,80.44,80.44,35,3.49
Buşayrā,JO,30.7376,35.6078,0,72.77,72.77,72.77,28,2.06
Tegul'det,RU,57.3064,88.1667,80,67.82,67.82,67.82,66,8.39
Karaton,ID,-6.3424,106.1045,99,86.31,86.31,86.31,61,2.55
Shima,CN,24.4478,117.8111,42,89.62,89.62,89.62,58,8.77
La Paz,BO,-16.5,-68.15,1,44.58,44.58,44.58,48,6.91
Nagrām,IN,26.6167,81.1333,43,80.65,80.65,80.65,64,4.94
Lloydminster,CA,53.2835,-110.0016,20,71.82,71.82,71.82,53,2.3
Yerofey Pavlovich,RU,53.9667,121.9667,100,59.56,59.56,59.56,56,8.19
Waddān,LY,29.1614,16.139,0,76.33,76.33,76.33,63,5.23
Gazli,UZ,40.1333,63.45,0,78.67,78.67,78.67,19,6.04
Okato,NZ,-39.2,173.8833,100,48.69,48.69,48.69,95,14.23
Puri,IN,19.8,85.85,5,82.92,82.92,82.92,65,3.4
Port Hedland,AU,-20.3167,118.5667,9,80.65,80.65,80.65,9,17.27
Nichinan,JP,31.6,131.3667,77,92.88,92.88,92.88,65,8.46
Yambio,SS,4.5721,28.3955,72,64.71,64.71,64.71,98,1.54
Doha,QA,25.2867,51.5333,0,91.29,91.29,88.11,66,3.44
Barreirinha,BR,-2.7933,-57.07,30,75.56,75.56,75.56,80,2.13
Cabedelo,BR,-6.9811,-34.8339,99,72.27,72.27,72.27,84,11.5
Hualmay,PE,-11.0964,-77.6139,32,60.48,60.48,60.48,85,8.37
Masuguru,TZ,-11.3667,38.4167,13,69.3,69.3,69.3,76,1.1
Sekondi,GH,4.937,-1.7128,62,71.87,71.87,71.87,92,0.67
Flinders,AU,-34.5833,150.8552,40,65.08,66.38,62.26,60,10.27
Atikokan,CA,48.7555,-91.6216,95,54.43,54.43,54.43,97,2.33
Tautira,PF,-17.7333,-149.15,46,75.45,75.45,75.45,82,16.78
Susanville,US,40.4163,-120.653,0,80.44,80.44,80.44,18,10.36
Husasău de Tinca,RO,46.8167,21.9167,22,66.22,66.22,66.02,89,2.19
Kokoda,PG,-8.8785,147.7407,98,79.48,79.48,79.48,84,1.83
Monroe,US,43.1501,-77.6831,75,68.99,73.02,63.41,81,5.75
Kiama,AU,-34.6833,150.8667,36,64.99,66.58,62.46,60,1.01
Quaraí,BR,-30.3875,-56.4514,14,61.32,61.32,61.32,93,8.12
Almaznyy,RU,48.0448,40.045,12,71.83,71.83,71.83,31,16.22
La Unión,PE,-5.4,-80.75,0,63.59,63.59,63.59,80,11.14
Boa Vista,BR,2.8197,-60.6733,40,75.18,75.18,75.18,88,2.3
Kolosovka,RU,56.4678,73.611,9,69.64,69.64,69.64,68,8.88
Mola di Bari,IT,41.0609,17.0873,100,71.4,72.23,69.58,75,13.47
Lata,PT,40.1629,-8.3327,100,62.82,64.08,62.82,94,1.54
Ivankiv,UA,50.9386,29.8943,0,62.64,62.64,62.64,50,6.4
Fort Nelson,CA,58.8053,-122.7002,0,78.39,78.39,78.39,57,0.0
Barra de Tecoanapa,MX,16.5167,-98.75,98,81.0,81.0,81.0,81,2.68
Dubbo,AU,-32.25,148.6167,100,57.33,57.33,57.33,67,10.36
Labuhan,ID,-6.8844,112.2051,98,84.97,84.97,84.97,57,5.55
Vila Franca do Campo,PT,37.7167,-25.4333,50,68.2,68.2,64.81,84,4.76
Āwash,ET,8.9833,40.1667,78,71.1,71.1,71.1,63,9.48
Camacha,PT,33.0833,-16.3333,40,67.42,67.42,67.42,83,8.05
Puteyets,RU,65.1716,57.091,31,51.58,51.58,51.58,69,5.86
Richards Bay,ZA,-28.783,32.0377,0,62.44,62.44,62.44,80,13.62
Yulara,AU,-25.2406,130.9889,0,62.01,62.01,62.01,25,15.84
Santa Marta,CO,11.2408,-74.199,75,82.45,82.45,82.45,78,4.61
Carutapera,BR,-1.195,-46.02,27,77.38,77.38,77.38,86,9.15
Gijón,ES,43.5357,-5.6615,95,69.48,70.0,68.85,98,1.01
Muslyumovo,RU,55.3033,53.1947,5,72.43,72.43,72.43,55,3.29
Prome,MM,18.8167,95.2167,53,87.51,87.51,87.51,68,1.32
Qinggang,CN,46.6833,126.0833,61,67.42,67.42,67.42,62,13.24
Garut,ID,-7.2024,107.8878,97,77.79,77.79,77.79,63,6.15
Marzuq,YE,14.4,46.4667,73,76.46,76.46,76.46,58,5.93
Sabzawār,IR,36.2126,57.6819,0,58.28,58.28,58.28,25,9.22
Acarí,PE,-15.4311,-74.6158,45,63.27,63.27,63.27,70,1.95
Tarauacá,BR,-8.1614,-70.7656,2,71.71,71.71,71.71,57,0.74
Illela,NG,13.7292,5.2975,100,78.04,78.04,78.04,78,6.2
Mount Isa,AU,-20.7333,139.5,0,69.57,69.57,69.57,16,14.97
